City,City ID,Latitude,Longitude,temperature,humidity,cloudiness,wind speed
Pochutla,3517970,15.7432,-96.4661,302.09,48,40,5.14
Hambantota,1244926,6.1241,81.1185,297.15,100,75,1.54
Ribeira Grande,3372707,38.5167,-28.7,289.15,88,40,4.12
Puerto Baquerizo Moreno,3652758,-0.9,-89.6,300.15,83,40,7.72
Busselton,2075265,-33.65,115.3333,286.43,71,99,0.89
East London,1006984,-33.0153,27.9116,296.09,91,100,6.45
Cape Town,3369157,-33.9258,18.4232,295.33,73,0,1.03
Cherskiy,2126199,68.75,161.3,247.03,89,100,1.67
Lompoc,5367788,34.6391,-120.4579,291.9,59,1,6.69
Fortuna,5563839,40.5982,-124.1573,287.75,94,90,0.63
New Norfolk,2155415,-42.7826,147.0587,288.67,59,4,1.79
Khovd,1516048,48.0056,91.6419,256.78,74,4,4.94
Rikitea,4030556,-23.1203,-134.9692,298.72,76,43,5.79
Punta Arenas,3874787,-53.15,-70.9167,286.04,67,90,8.75
Barrow,5880054,71.2906,-156.7887,252.15,77,1,7.2
Bethel,5282297,41.3712,-73.414,275.07,72,89,1.66
Clyde River,5924351,70.4692,-68.5914,247.15,76,1,1.54
Severo-Kuril'sk,2121385,50.6789,156.125,265.24,84,34,4.44
Ponta do Sol,2264557,32.6667,-17.1,282.43,55,50,4.02
Buraidah,107304,26.326,43.975,284.15,76,20,3.09
Nanortalik,3421765,60.1432,-45.2371,271.73,94,100,6.43
Touho,2137873,-20.7833,165.2333,298.46,92,100,4.7
Valréas,2970838,44.3837,4.9908,280.41,87,0,5.14
Kosonsoy,1513714,41.2561,71.5508,275.15,51,0,3.09
Ushuaia,3833367,-54.8,-68.3,287.15,54,75,2.06
Torbay,6167817,47.6666,-52.7314,271.18,86,90,1.97
Port Alfred,964432,-33.5906,26.891,292.59,97,100,0.89
Tiksi,2015306,71.6872,128.8694,236.83,81,40,0.71
Miltenberg,2871079,49.7039,9.2644,273.91,57,100,1.34
Porto-Novo,2392087,6.4965,2.6036,301.15,83,20,6.69
Saint-Philippe,935215,-21.3585,55.7679,296.25,83,90,1.03
Necochea,3430443,-38.5473,-58.7368,294.82,50,0,7.88
Makakilo City,5850554,21.3469,-158.0858,300.55,57,1,3.6
Aklavik,5882953,68.2191,-135.0107,248.62,84,68,0.51
Tuktoyaktuk,6170031,69.4541,-133.0374,243.15,76,20,1.54
Cabo San Lucas,3985710,22.8909,-109.9124,296.29,46,40,5.66
Hithadhoo,1282256,-0.6,73.0833,300.93,74,100,9.7
Tadine,2138285,-21.55,167.8833,298.89,86,100,5.89
Along,1278969,28.1667,94.7667,283.47,79,0,0.63
Mataura,6201424,-46.1927,168.8643,294.97,54,0,0.84
Saint George,5546220,37.1041,-113.5841,283.41,23,1,0.26
Arraial do Cabo,3471451,-22.9661,-42.0278,299.15,78,0,9.26
Aksu,1529660,41.1231,80.2644,264.85,75,0,1.19
Albany,5106841,42.6001,-73.9662,274.42,65,88,1.23
Kapaa,5848280,22.0752,-159.319,299.21,65,1,3.09
Port Macquarie,2152659,-31.4333,152.9167,296.96,85,10,0.89
Avarua,4035715,-21.2078,-159.775,303.15,70,20,9.26
Mahébourg,934322,-20.4081,57.7,298.15,88,75,2.06
San Cristobal,3628473,7.7669,-72.225,302.15,58,40,3.09
Kavaratti,1267390,10.5669,72.642,297.02,88,100,3.07
Pisco,3932145,-13.7,-76.2167,295.91,69,0,10.29
Bluff,2206939,-46.6,168.3333,288.62,84,12,2.4
Bredasdorp,1015776,-34.5322,20.0403,293.15,83,100,5.66
São João da Barra,3448903,-21.6403,-41.0511,299.15,73,0,10.29
Marawi,1701054,7.9986,124.2928,297.59,95,100,2.24
Provideniya,4031574,64.3833,-173.3,258.15,78,90,4.0
Qaanaaq,3831208,77.484,-69.3632,254.08,82,0,2.37
Jacareacanga,3397763,-6.2222,-57.7528,298.46,89,100,1.32
Cornelius,4461941,35.4868,-80.8601,285.37,47,1,3.09
Dikson,1507390,73.5069,80.5464,239.85,85,0,3.14
Nong’an,2035565,44.382,125.1685,253.15,59,0,3.0
Piranshahr,121110,36.701,45.1413,277.42,72,99,3.33
Praia,3374333,14.9215,-23.5087,295.15,68,75,10.29
Atuona,4020109,-9.8,-139.0333,298.44,78,40,6.91
Hilo,5855927,19.7297,-155.09,298.6,54,40,2.57
Khatanga,2022572,71.9667,102.5,239.18,84,100,5.64
Chokurdakh,2126123,70.6333,147.9167,236.98,83,79,2.26
Kenai,5866063,60.5544,-151.2583,270.54,93,40,1.54
San Policarpo,1688696,12.1791,125.5072,299.58,84,100,1.61
Fairbanks,5861897,64.8378,-147.7164,253.71,77,20,0.51
George Town,1735106,5.4112,100.3354,297.57,83,20,3.01
Bengkulu,1649150,-3.8004,102.2655,297.39,84,99,3.16
Sørland,3137469,67.667,12.6934,271.15,80,20,1.03
Pevek,2122090,69.7008,170.3133,244.15,88,95,2.45
Isangel,2136825,-19.55,169.2667,302.15,84,75,4.33
Sioux Lookout,6148373,50.1001,-91.917,271.15,86,90,2.06
Vaini,4032243,-21.2,-175.2,302.15,84,40,5.14
Geraldton,2070998,-28.7667,114.6,295.15,49,0,5.14
Zhangaözen,607610,43.3,52.8,274.55,86,0,12.97
Hemsedal,3152989,60.8629,8.5534,257.95,75,0,1.34
Cap Malheureux,934649,-19.9842,57.6142,298.71,82,11,2.24
Kapoeta,372884,4.7717,33.5903,301.36,28,26,4.43
Arrondissement de Pithiviers,2987002,48.1667,2.25,281.19,87,90,6.69
Dingle,1714733,10.9995,122.6711,297.17,88,85,4.32
Mount Gambier,2156643,-37.8333,140.7667,284.15,100,90,3.09
Victor Harbor,2059470,-35.5667,138.6167,289.37,83,36,4.8
Orchard Homes,5670128,46.8633,-114.0484,276.77,48,90,10.8
Kuril'sk,2123979,45.2333,147.8833,270.19,90,86,4.19
Pringsewu,1630639,-5.3582,104.9744,295.42,93,100,1.04
City of San Pedro,1688781,14.35,121.0167,296.68,83,20,0.51
Souillac,933995,-20.5167,57.5167,298.15,88,75,2.06
Santa Maria,3450083,-29.6842,-53.8069,298.15,65,75,7.2
Grindavik,3416888,63.8424,-22.4338,277.15,87,40,6.17
Hong Kong,1819729,22.2855,114.1577,284.7,53,0,3.13
Aswān,359792,24.0934,32.907,292.4,29,3,3.31
Preetz,2852280,54.2333,10.2833,274.2,86,90,8.23
Khasan,2039557,42.4308,130.6434,264.01,82,0,6.31
Esperance,2071860,-33.8667,121.9,285.15,71,90,3.09
Las Cruces,5475352,32.3123,-106.7783,286.33,20,0,2.31
Port Elizabeth,964420,-33.918,25.5701,294.15,94,90,4.12
Jamestown,5122534,42.097,-79.2353,274.79,80,1,4.95
Saskylakh,2017155,71.9167,114.0833,231.0,77,92,4.97
Arroio Grande,3471422,-32.2375,-53.0869,291.48,63,0,8.94
Lumeje,876123,-11.55,20.7833,292.92,91,100,2.34
Sukhumi,611847,43.0033,41.0153,285.6,82,100,2.17
Luang Prabang,1655559,19.8856,102.1347,283.53,80,48,0.59
Chui,3443061,-33.6971,-53.4616,292.59,54,0,4.43
Ekimchan,2024461,53.0667,132.9667,245.98,84,100,1.23
Carnarvon,2074865,-24.8667,113.6333,298.15,94,36,6.69
Shunyi,2034754,40.125,116.6453,268.52,86,0,1.0
Vega de Alatorre,3514843,20.0333,-96.6333,291.25,65,89,5.65
Saint-Pierre,935214,-21.3393,55.4781,296.66,83,90,1.03
Almaznyy,582447,48.0448,40.045,274.15,100,75,6.0
Delījān,136399,33.9905,50.6838,280.16,46,0,1.84
Bathsheba,3374083,13.2167,-59.5167,300.15,69,40,7.2
Sitka,5557293,57.0531,-135.33,275.15,93,90,3.09
Launceston,2160517,-41.45,147.1667,289.83,59,0,5.66
Acapulco de Juárez,3533462,16.8634,-99.8901,303.15,62,90,4.63
Malbork,3092472,54.0359,19.0266,271.84,100,94,2.48
Cayenne,3382160,4.9333,-52.3333,299.15,89,75,3.09
Katsuura,2112309,35.1333,140.3,279.17,71,40,3.09
Rocha,3440777,-34.4833,-54.3333,293.1,45,0,4.71
Margate,2643044,51.3813,1.3862,278.05,91,100,0.45
Belaya Gora,2126785,68.5333,146.4167,234.83,82,100,1.57
Yerbogachën,2012956,61.2767,108.0108,245.52,87,100,4.68
Nokaneng,933211,-19.6667,22.2667,296.39,78,83,3.21
Hermanus,3366880,-34.4187,19.2345,294.82,80,43,5.36
Mar del Plata,3430863,-38.0023,-57.5575,291.97,56,0,6.69
Port-Gentil,2396518,-0.7193,8.7815,299.15,83,20,2.57
Champawat,1274824,29.3333,80.1,274.52,88,0,1.75
Kaeo,2189343,-35.1,173.7833,297.04,62,41,6.26
Broken Hill,2173911,-31.95,141.4333,291.15,55,0,7.72
Caniço,2270258,32.6333,-16.85,282.86,62,20,3.6
Kurud,1265472,20.8322,81.7214,286.28,54,0,0.83
Longyearbyen,2729907,78.2186,15.6401,264.15,79,75,5.14
Vestmannaeyjar,3412093,63.4427,-20.2734,279.95,79,100,3.26
Puerto Ayora,3652764,-0.7393,-90.3518,301.13,51,75,7.72
Atambua,1651103,-9.1061,124.8925,297.42,85,85,1.29
Presidencia Roque Sáenz Peña,3840300,-26.7852,-60.4388,305.37,53,100,1.79
Norman Wells,6089245,65.282,-126.8329,258.15,85,90,8.23
Oudtshoorn,967106,-33.5907,22.2014,292.15,94,75,2.06
Polovinnoye,1494523,54.7914,65.9864,243.91,84,0,1.5
Yulara,6355222,-25.2406,130.9889,302.15,24,0,3.6
Hobart,2163355,-42.8794,147.3294,289.43,48,20,3.6
Lüderitz,3355672,-26.6481,15.1594,291.96,83,10,2.04
Troitsko-Pechorsk,481548,62.7084,56.1964,244.28,87,50,0.96
Orotina,3622660,9.912,-84.5234,296.46,44,75,6.69
Port-Cartier,6111696,50.0334,-66.8654,268.65,80,100,1.54
Krasnosel'kup,1502073,65.7,82.4667,262.5,96,100,5.49
Milos,256952,36.75,24.4333,286.15,62,73,4.12
Talnakh,1490256,69.4865,88.3972,241.14,78,4,4.69
Vila Velha,3445026,-20.3297,-40.2925,300.62,74,20,6.69
Edd,338345,13.9297,41.6925,296.86,51,0,6.1
Abu Samrah,172515,35.3029,37.1841,286.67,77,69,6.96
Faanui,4034551,-16.4833,-151.75,300.66,75,94,6.55
La Arena,3693528,-5.3466,-80.7109,301.51,50,72,9.09
Hasaki,2112802,35.7333,140.8333,271.06,86,20,1.54
Saint-Joseph,6690296,-21.3667,55.6167,296.89,83,90,1.03
Trelew,3833883,-43.249,-65.3051,297.91,27,85,12.55
Obala,2223293,4.1667,11.5333,296.15,94,20,2.06
Padang,1633419,-0.9492,100.3543,297.99,74,96,2.6
Sindor,492860,62.8629,51.8905,246.67,84,19,0.53
Butaritari,2110227,3.0707,172.7902,300.7,77,81,9.2
Chapais,5919850,49.7834,-74.8492,271.15,93,90,5.66
Inhambane,1045114,-23.865,35.3833,299.01,86,0,2.87
Kamenka,553766,51.3223,42.7678,270.5,97,100,10.73
High Prairie,5975034,55.4334,-116.4858,273.15,43,81,7.72
Awjilah,88533,29.1081,21.2869,285.82,55,63,6.62
Cockburn Town,3576994,21.4612,-71.1419,298.79,80,81,8.07
Minoh,1857046,34.8269,135.4706,274.51,100,20,1.54
Tessalit,2449893,20.1986,1.0114,291.85,24,0,5.36
Bayir,304183,37.2687,28.2167,281.15,87,75,2.57
Dovers,3577911,12.8833,-61.1833,300.15,74,40,5.66
Iqaluit,5983720,63.7506,-68.5145,249.21,70,20,7.2
Vardø,777019,70.3705,31.1107,259.15,78,40,9.8
Adrar,2381972,20.5022,-10.0711,291.16,26,7,5.81
Bagdarin,2027244,54.4333,113.6,241.72,77,26,1.25
Abéché,245785,13.8292,20.8324,293.65,20,0,4.16
Jardim,3460087,-21.4803,-56.1381,298.94,85,92,2.13
Sorong,1626542,-0.8833,131.25,300.77,83,86,4.55
Barreirinhas,3406196,-2.7469,-42.8264,299.23,81,96,3.58
San Angelo,5530022,31.4638,-100.437,291.5,24,1,7.72
Tasiilaq,3424607,65.6145,-37.6368,273.15,86,90,14.4
Igrim,1505965,63.1906,64.4162,252.45,86,18,2.56
Hay River,5972762,60.8156,-115.7999,267.66,86,68,5.66
Ahipara,2194098,-35.1667,173.1667,295.33,60,9,1.96
Madang,2091996,-5.2246,145.7966,299.42,85,100,2.29
Poroszló,716339,47.65,20.6667,274.15,69,75,4.12
Pozo Colorado,3437443,-23.4923,-58.7972,305.73,55,92,2.72
Kailua,5847486,21.4022,-157.7394,300.69,54,75,0.84
Kuruman,986134,-27.4524,23.4325,295.93,83,55,2.97
Upernavik,3418910,72.7868,-56.1549,261.07,96,100,8.04
Mbini,2308278,1.574,9.6134,299.15,94,40,3.09
São Filipe,3374210,14.8961,-24.4956,295.15,74,18,5.6
Castro,3466704,-24.7911,-50.0119,293.38,91,93,4.89
Kavieng,2094342,-2.5744,150.7967,301.98,73,88,6.57
São Félix do Xingu,3388847,-6.6447,-51.995,297.24,93,98,0.83
Hualmay,3939761,-11.0964,-77.6139,295.68,78,96,4.89
Airai,1651810,-8.9266,125.4092,289.88,100,76,0.61
Austin,4671654,30.2672,-97.7431,291.21,27,1,2.57
Tandil,3427833,-37.3217,-59.1332,296.94,38,50,3.21
Altay,1529651,47.8667,88.1167,255.15,82,100,0.46
Paso de Carrasco,3441292,-34.8603,-56.0522,295.49,49,0,7.72
Igarka,1505991,67.4667,86.5833,242.04,84,80,6.73
Solnechnyy,2016307,50.7214,136.6319,250.83,86,100,3.26
Port Hedland,2063042,-20.3167,118.5667,300.15,94,14,3.09
Silva Jardim,3447591,-22.6508,-42.3917,299.15,82,20,8.75
Kerema,2094144,-7.9631,145.7785,299.34,83,100,3.13
Saint Anthony,5044290,45.0205,-93.218,277.43,70,90,2.06
College,5859699,64.8569,-147.8028,253.64,70,40,1.1
Namatanai,2090021,-3.6667,152.4333,301.54,72,93,5.07
Ancud,3899695,-41.8697,-73.8203,291.15,59,0,3.6
Kandrian,2094746,-6.2167,149.55,299.62,81,100,1.28
Abu Kamal,174448,34.4506,40.9171,289.29,31,100,7.0
Mocuba,1024312,-16.8392,36.9856,297.23,96,98,1.18
Ambilobe,1082243,-13.2,49.05,297.51,93,37,0.93
Brae,2654970,60.3964,-1.353,276.15,65,40,6.17
Pyu,1298911,18.4833,96.4333,292.08,87,26,1.27
Hamilton,4513583,39.1834,-84.5333,280.06,53,90,4.63
Dhidhdhoo,1337612,6.8833,73.1,299.43,84,100,5.93
Tura,1254046,25.5198,90.2201,285.73,40,0,1.23
Ende,1644932,-8.8432,121.6623,300.1,76,100,0.74
Saint Paul Harbor,5866583,57.79,-152.4072,275.52,82,0,3.79
Mozarlândia,3456642,-14.7447,-50.5706,299.91,75,68,2.34
Marsh Harbour,3571913,26.5412,-77.0636,295.83,72,97,2.54
Tuni,1254054,17.35,82.55,293.64,89,4,1.7
San Vicente,3428068,-26.6167,-54.1333,298.0,81,59,2.3
Havøysund,779622,70.9963,24.6622,269.15,80,0,4.12
Caravelas,3466980,-17.7125,-39.2481,297.94,80,0,2.12
Angoram,2100765,-4.0625,144.0661,298.67,93,100,0.26
São Paulo de Olivença,3662252,-3.3783,-68.8725,297.47,96,90,1.54
Pacific Grove,5380437,36.6177,-121.9166,290.41,55,1,1.54
Kunyang,1804645,27.6658,120.5658,278.54,66,0,1.51
Nioro,2412408,13.35,-15.75,299.69,17,0,3.66
Plácido de Castro,3924895,-10.3353,-67.1856,297.06,94,96,0.38
Montélimar,2992703,44.5584,4.7509,279.82,86,51,4.44
Shimoda,1852357,34.6667,138.95,274.26,93,0,2.24
Taseyevo,1490058,57.2169,94.8978,247.39,87,100,2.79
Sibut,2383119,5.718,19.0739,296.3,21,47,2.1
Rawson,3839307,-43.3002,-65.1023,295.93,36,68,12.67
Beringovskiy,2126710,63.05,179.3167,249.02,89,100,4.48
Pirgos,261814,35.1167,25.7178,288.15,48,100,1.81
Pangnirtung,6096551,66.1451,-65.7125,247.15,76,1,0.9
Guerrero Negro,4021858,27.9769,-114.0611,295.84,20,0,3.62
Goderich,5962442,43.7501,-81.7165,276.15,81,100,5.14
Stornoway,2636790,58.2093,-6.3865,278.97,87,75,7.2
Rio Grande,3451138,-32.035,-52.0986,295.37,63,0,1.34
Chernyshevskiy,2025456,63.0128,112.4714,243.2,87,100,3.36
Khūtār,1266596,28.2,80.2833,281.16,56,0,1.12
Sumbe,3346015,-11.2061,13.8437,297.23,78,100,2.42
San Patricio,4726521,28.017,-97.5169,288.43,54,75,3.09
Laguna,5364271,38.421,-121.4238,291.93,68,1,2.59
Murwillumbah,2156049,-28.3167,153.4,297.65,73,38,3.09
Adeje,2522437,28.1227,-16.726,288.92,59,20,5.14
Los Llanos de Aridane,2514651,28.6585,-17.9182,287.91,55,75,5.66
Mount Isa,2065594,-20.7333,139.5,303.15,42,30,1.54
Creston,4853078,41.0586,-94.3614,280.15,61,1,4.12
Forsytheganj,10722858,52.6333,29.7333,266.28,97,97,2.7
Shaowu,1795857,27.3409,117.4831,276.32,74,0,0.85
Qian’an,2035410,44.9932,124.0581,249.58,83,3,2.4
Callaway,4149635,30.153,-85.5699,282.36,76,40,4.63
Penzance,2640377,50.1186,-5.5371,282.59,93,90,8.23
Zhoucheng,1920772,35.9122,116.3117,273.14,93,0,3.79
Trairi,3386177,-3.2778,-39.2689,299.44,78,49,4.32
Constitución,3893726,-35.3333,-72.4167,291.0,49,0,7.5
Grand Bank,5964230,47.0999,-55.765,274.99,87,20,5.14
Port Moresby,2088122,-9.4431,147.1797,298.15,94,40,3.09
Areosa,2742765,41.7178,-8.8571,278.6,93,0,1.54
Sinnamary,3380290,5.3833,-52.95,298.81,83,53,5.7
Riyadh,108410,24.6877,46.7219,281.78,34,0,0.58
Salina,4278890,38.8403,-97.6114,290.62,23,1,5.14
Port Antonio,3489005,18.18,-76.4612,300.54,61,20,8.75
Palmer,4946620,42.1584,-72.3287,274.81,52,90,3.09
Plettenberg Bay,964712,-34.0527,23.3716,294.09,90,14,4.65
Two Hills,6171332,53.7169,-111.7518,271.75,100,100,12.86
Dabat,340358,12.9842,37.765,281.88,53,0,0.88
Ballina,2177069,-28.8667,153.5667,294.96,88,45,2.57
Lebu,3883457,-37.6167,-73.65,287.79,71,0,6.94
At-Bashi,1528796,41.1702,75.8106,267.73,91,100,0.52
Bambous Virieux,1106677,-20.3428,57.7575,298.41,88,75,2.06
Thinadhoo,1337610,0.5333,72.9333,300.74,74,98,8.84
Bhādāsar,1276355,28.2833,74.3167,285.86,32,0,1.18
Pangody,1495626,65.85,74.4859,257.27,92,97,8.75
Vallenar,3868633,-28.5708,-70.7581,300.94,27,0,3.18
Ust'-Kalmanka,1488200,52.1207,83.305,249.67,87,98,5.89
Huarmey,3939168,-10.0681,-78.1522,295.85,77,88,4.54
Puerto del Rosario,2512186,28.5004,-13.8627,291.15,52,20,4.63
Portland,5746545,45.5234,-122.6762,284.17,54,75,2.57
Lagunas,3695844,-5.2269,-75.6753,298.38,92,96,1.9
Kimbe,2093967,-5.5502,150.1429,301.05,79,99,1.49
Korla,1529376,41.7597,86.1469,265.53,80,11,1.38
Ruston,4339348,32.5232,-92.6379,288.15,33,1,4.12
Codrington,2171099,-38.2667,141.9667,288.75,74,9,3.2
Port Blair,1259385,11.6667,92.75,298.18,77,6,4.87
Coyhaique,3894426,-45.5752,-72.0662,295.15,40,0,2.57
Chumikan,2025256,54.7183,135.315,249.14,87,100,2.56
Yellowknife,6185377,62.456,-114.3525,264.21,92,75,6.17
Vanimo,2084442,-2.6741,141.3028,299.69,81,93,2.46
Touros,3386213,-5.1989,-35.4608,300.15,74,20,7.2
Nikolskoye,546105,59.7035,30.7861,257.9,78,40,5.0
Tezu,1254709,27.9167,96.1667,287.37,54,0,1.49
Westport,4845585,41.1415,-73.3579,276.21,65,90,2.06
Lincoln,5072006,40.8,-96.667,284.73,40,1,3.6
Tvedestrand,3133681,58.622,8.9315,269.5,68,9,3.09
Dubai,292223,25.2582,55.3047,290.72,68,20,2.57
Lata,2738381,40.1629,-8.3327,278.1,87,75,0.51
Quartucciu,2523666,39.2519,9.1794,286.0,82,40,5.14
Udachny,2014624,66.4167,112.4,239.79,82,100,5.06
Timmins,6166739,48.4669,-81.3331,272.15,86,90,5.14
Seoul,1835848,37.5683,126.9778,267.14,79,0,1.03
Tuatapere,2180815,-46.1333,167.6833,293.27,61,3,1.27
Rock Springs,5836898,41.5875,-109.2029,280.15,53,90,12.35
Ulagan,1488048,50.6321,87.9563,252.63,83,100,0.93
Balakhninskiy,2027196,58.0106,114.2769,242.2,80,100,0.86
Nara,1855612,34.6851,135.8049,274.64,100,20,1.54
Sittwe,1295765,20.15,92.9,290.71,75,55,2.96
Rio Tuba,1691703,8.5061,117.4317,299.46,79,93,2.9
Nayoro,2128983,44.3506,142.4578,268.16,96,100,1.13
Ol'ga,2018553,43.7444,135.2892,261.44,81,0,6.74
Marsabit,187585,2.3284,37.9899,292.53,51,0,2.93
Buluang,1722803,13.3068,123.3425,297.3,92,91,2.74
Ruthin,2638925,53.1137,-3.3178,281.81,95,100,2.68
Alassio,3183366,44.0039,8.1671,281.05,93,0,3.6
Kuala Lipis,1733023,4.1842,102.0468,293.92,93,100,0.42
Ostrovnoy,556268,68.0531,39.5131,257.62,93,64,10.01
Phan Thiet,1571058,10.9333,108.1,292.41,85,0,2.87
Poum,2138555,-20.2333,164.0167,300.48,82,100,5.73
Týniště nad Orlicí,3063797,50.1514,16.0777,272.96,90,100,4.02
Sobolevo,525426,54.4299,31.8996,263.95,96,100,5.84
Berdigestyakh,2026861,62.0989,126.6992,231.45,80,61,1.61
Villarrica,3436714,-25.75,-56.4333,303.16,69,11,1.98
Thanh Hoa,1566166,19.8,105.7667,285.46,62,67,1.5
Wittstock,2807201,53.1612,12.4829,273.43,86,92,3.13
Belmonte,3470137,-15.8631,-38.8828,298.15,83,40,5.14
Labuhan,8079926,-6.8844,112.2051,298.33,85,100,2.97
Tual,1623197,-5.6667,132.75,302.45,73,100,4.16
Kruisfontein,986717,-34.0033,24.7314,294.82,89,98,4.92
Sakakah,102527,29.9697,40.2064,286.15,41,0,4.12
Kiama,2161515,-34.6833,150.8667,297.8,80,82,5.36
Batié,2362669,9.8833,-2.9167,298.33,16,0,1.26
Northam,2641434,51.0333,-4.2167,282.4,100,96,2.24
Itarema,3393692,-2.9248,-39.9167,299.6,78,76,5.63
Matara,1235846,5.9485,80.5353,296.87,88,96,3.15
Te Anau,2181625,-45.4167,167.7167,292.98,61,29,2.01
Qaqortoq,3420846,60.7167,-46.0333,272.15,80,90,2.06
Camden,4501019,39.7835,-74.9663,279.14,44,4,3.15
Bilma,2446796,18.6853,12.9164,293.04,31,36,6.93
Beloha,1067565,-25.1667,45.05,297.17,92,35,3.35
Bima,1648759,-8.4667,118.7167,298.6,85,100,1.86
Umba,479071,66.6871,34.3429,254.24,93,87,1.32
Puri,1259184,19.8,85.85,295.15,88,40,2.45
Roebourne,2062276,-20.7833,117.1333,305.94,31,39,3.94
Isabela,1710519,6.7085,121.9711,298.15,94,75,0.51
Kalianget,1641977,-7.05,113.9333,299.4,82,100,3.03
Mayo,4362001,38.8876,-76.5119,279.21,70,1,3.09
Kloulklubed,7671223,7.0419,134.2556,298.15,94,75,2.06
Carballo,3126369,43.213,-8.691,278.67,87,75,2.06
Nandyāl,1261927,15.4833,78.4833,292.81,85,0,0.7
New Ulm,5039173,44.3125,-94.4605,280.15,70,1,3.09
Henties Bay,3356832,-22.116,14.2845,294.26,85,100,1.66
Okha,2122614,53.5739,142.9478,251.38,88,100,5.12
Ankazobe,1072849,-18.3167,47.1167,294.15,88,75,2.57
Paraíso,3622547,9.8383,-83.8656,294.65,53,0,6.17
Ketchikan,5554428,55.3422,-131.6461,277.15,93,75,3.6
Kwang Binh,1582886,17.4833,106.6,288.32,78,80,2.19
Våge,3133027,60.0469,5.5178,269.67,68,0,1.03
Panama City,3703443,8.9936,-79.5197,302.57,70,40,2.06
Mossamedes,3347019,-15.1961,12.1522,295.6,72,81,2.17
Vanavara,2013727,60.34,102.2797,247.42,88,100,4.49
Cândido de Abreu,3467545,-24.5669,-51.3333,296.9,90,97,1.73
Manaus,3663517,-3.1019,-60.025,299.17,83,75,2.06
Dauriya,2025099,49.9333,116.8667,243.83,81,0,0.73
Chimoré,3920736,-16.9833,-65.1333,299.43,93,100,0.7
Riohacha,3670745,11.5444,-72.9072,301.17,58,99,5.98
Yangi Marg`ilon,1513491,40.4272,71.7189,275.15,51,73,3.09
Ilulissat,3423146,69.2167,-51.1,269.15,86,75,5.66
Vytegra,469960,61.0064,36.4481,246.8,88,92,4.08
Matanzas,3547398,23.0411,-81.5775,297.66,83,37,5.01
Guozhen,1809263,34.3659,107.359,278.29,56,0,1.9
Del Rio,5520076,29.3627,-100.8968,291.15,27,1,3.09
São João de Pirabas,3388626,-0.7747,-47.1772,298.15,91,100,3.26
Salalah,286621,17.0151,54.0924,297.15,23,0,4.63
Maragogi,3395458,-9.0122,-35.2225,299.02,77,8,4.12
Kahului,5847411,20.8947,-156.47,298.51,54,20,4.12
Naryan-Mar,523392,67.6713,53.087,249.75,85,61,5.08
Merauke,2082539,-8.4667,140.3333,300.0,85,100,3.22
Kaura Namoda,2334756,12.5898,6.5779,294.37,20,0,4.18
Olafsvik,3414079,64.8945,-23.7142,278.5,84,95,6.24
Kamiiso,2129766,41.8167,140.65,275.15,93,75,8.75
Fort Nelson,5955902,58.8053,-122.7002,269.15,68,75,2.06
Bilibino,2126682,68.0546,166.4372,243.27,81,95,3.25
Conceição do Mato Dentro,3465745,-19.0372,-43.425,294.07,90,14,1.39
Amapá,3407762,1.0,-52.0,298.18,81,91,1.8
Alpena,4984075,45.0617,-83.4327,276.02,81,90,2.41
Gachsaran,136014,30.3586,50.7981,279.15,70,0,0.51
Rosetown,6127749,51.5501,-108.0014,275.1,81,71,12.86
Dunedin,2191562,-45.8742,170.5036,291.77,68,51,0.96
Yaan,2338660,7.3833,8.5667,299.82,16,0,1.04
Bad Freienwalde,2953458,52.7873,14.0304,273.15,80,85,4.55
Puerto Colombia,3671497,10.9878,-74.9547,303.15,62,75,5.14
Gwadar,1177446,25.1216,62.3254,291.78,26,0,3.24
Nampula,1033356,-15.1165,39.2666,298.94,83,75,1.54
Pitimbu,3391889,-7.4706,-34.8086,300.15,78,75,3.6
São Geraldo do Araguaia,3388760,-6.4006,-48.555,297.96,89,62,1.06
Santa Vitória do Palmar,3449747,-33.5189,-53.3681,292.42,56,0,4.35
Bonavista,5905393,48.6499,-53.1147,270.45,86,59,1.03
Port Augusta,2063056,-32.5,137.7667,290.99,68,40,6.17
Ciudad Bolivar,3645532,8.1222,-63.5497,301.47,60,97,5.71
Brørup,2623321,55.4819,9.0176,273.5,86,85,7.2
Corrientes,3435217,-27.4806,-58.8341,303.95,51,40,6.69
Ippy,238566,6.2679,21.2247,296.96,20,29,2.38
Gillette,5826027,44.2911,-105.5022,282.66,49,1,12.35
Kushmurun,1519924,52.4503,64.6311,245.49,85,0,1.3
Zaozyornoye,687726,45.1582,33.2787,277.16,74,100,3.99
Winnemucca,5710360,40.973,-117.7357,285.52,56,86,8.67
Myitkyina,1307741,25.3833,97.4,285.81,78,3,1.0
Tocopilla,3869716,-22.092,-70.1979,294.9,60,100,4.43
Kodino,546742,63.7198,39.6447,244.5,87,0,1.68
Thompson,6165406,55.7435,-97.8558,271.15,100,90,1.54
Bolobo,2316748,-2.1667,16.2333,296.34,88,93,2.6
Tinos,252854,37.5375,25.1634,285.37,64,85,1.34
Belyy Yar,1510377,53.6039,91.3903,250.15,77,90,1.0
Nikel,522260,69.4128,30.222,255.15,71,75,5.14
Marabu,1738050,4.4148,114.0089,298.15,100,40,3.09
Wencheng,1791539,33.0559,113.7978,278.1,66,2,2.07
Emerald,2167426,-23.5333,148.1667,297.34,78,0,3.09
Comodoro Rivadavia,3860443,-45.8667,-67.5,292.15,68,0,5.14
Tomatlán,3981391,19.9333,-105.25,304.15,22,99,2.69
Hauterive,3013748,46.0901,3.4459,280.71,66,90,1.54
Moussoro,2427336,13.6408,16.4901,294.93,20,2,4.63
Acandí,3690572,8.5063,-77.2778,300.53,78,93,3.12
Jiangyou,1885823,31.7667,104.7167,275.45,77,0,0.89
Calvinia,3369174,-31.4707,19.776,300.01,30,0,1.81
Juruti,3396979,-2.1522,-56.0922,299.42,84,95,0.48
Santa Maria da Boa Vista,3389462,-8.8078,-39.8256,300.51,63,75,4.61
Cabedelo,3404558,-6.9811,-34.8339,300.15,78,75,3.6
Constantine,2501152,36.365,6.6147,279.15,81,40,4.12
Sisimiut,3419842,66.9395,-53.6735,266.0,96,100,4.4
Frontera,3980180,26.9333,-101.45,293.15,26,40,4.12
Şile,739636,41.1754,29.6133,280.64,100,75,3.09
Leningradskiy,2123814,69.3833,178.4167,248.09,88,100,3.83
Narrabri,2155742,-30.3167,149.7833,298.15,50,0,4.63
Muros,3115824,42.7762,-9.0603,279.88,89,4,1.79
Chipinge,893549,-20.1883,32.6236,292.48,92,100,2.93
Manggar,1636426,-2.8833,108.2667,298.38,89,100,3.31
Ust-Nera,2120048,64.5667,143.2,239.75,75,97,1.66
Kirakira,2178753,-10.4544,161.9205,301.39,80,89,5.02
Waingapu,1622318,-9.6567,120.2641,299.74,77,100,2.1
Menongue,3347353,-14.6585,17.691,291.85,92,100,1.53
Vrangel',2013258,42.7297,133.0839,264.32,83,1,6.91
Les Cayes,3728097,18.2,-73.75,298.83,66,64,2.15
Rameswaram,1258698,9.2833,79.3,299.39,82,98,7.66
Vero Beach,4176409,27.6386,-80.3973,289.36,77,90,3.09
Coahuayana Viejo,4013679,18.7333,-103.6833,301.15,42,75,2.37
Shuya,493231,56.8487,41.3883,251.07,89,100,5.15
Redmond,5808079,47.674,-122.1215,282.53,57,23,1.67
Cabildo,3863596,-38.4842,-61.8954,298.71,35,5,2.68
Deputatsky,2028164,69.3,139.9,234.77,76,69,0.36
Villaviciosa,3104707,43.4813,-5.4357,278.41,67,0,1.84
Alyangula,2079582,-13.8483,136.4192,299.15,100,75,1.54
Nishihara,1855342,26.1842,127.7558,285.68,54,75,3.09
Kumul,1529484,42.8,93.45,264.6,85,75,2.16
Guatire,3639898,10.4762,-66.5427,303.15,74,20,2.57
Iwanai,2129868,42.9744,140.5089,272.65,91,98,9.32
Kununurra,2068110,-15.7667,128.7333,299.15,100,46,1.54
Akdepe,601551,42.0551,59.3788,269.17,80,0,6.17
Batangafo,2389691,7.3008,18.2833,297.23,19,30,1.95
Fare,4034496,-16.7,-151.0167,300.52,76,88,7.31
Sibolga,1213855,1.7427,98.7792,297.6,67,99,1.83
Kachug,2023333,53.9606,105.8817,242.43,83,68,0.92
Warmbad,3352263,-28.45,18.7333,301.1,50,70,5.05
Sangar,2017215,63.9242,127.4739,231.7,80,87,2.29
Santiago del Estero,3835869,-27.7951,-64.2615,300.93,72,98,0.89
Kilindoni,157429,-7.9139,39.6668,300.06,80,8,6.43
Gizo Government Station,2108857,-8.103,156.8419,302.22,72,81,5.53
Srednekolymsk,2121025,67.45,153.6833,242.24,86,100,2.77
Dongli,1812381,23.5656,116.8194,278.15,81,0,1.0
Sars,498501,56.5502,57.1366,251.0,91,55,2.28
Batemans Bay,2176639,-35.7167,150.1833,303.71,56,19,1.87
Pacifica,5380420,37.6138,-122.4869,291.08,72,75,1.54
Boende,218680,-0.2167,20.8667,297.01,75,89,0.88
Hermon,4966992,44.8101,-68.9134,273.5,55,90,1.51
Östersund,2685750,63.1792,14.6357,259.15,85,90,2.57
Lake Cowichan,6048316,48.825,-124.0546,282.31,43,20,3.09
Shīeli,1524801,44.1667,66.75,266.41,94,10,3.07
Malakanagiri,1264075,18.35,81.9,290.93,76,76,0.1
Clearwater,4151316,27.9659,-82.8001,284.45,82,100,2.06
Lorengau,2092164,-2.0226,147.2712,302.02,72,100,4.4
Yārāda,1252783,17.65,83.2667,294.15,94,4,1.03
Tengzhou,1793036,35.0771,117.1518,273.94,88,0,3.29
Iquitos,3696183,-3.7481,-73.2472,304.15,66,40,3.09
Maraã,3663475,-1.8333,-65.3667,299.59,92,93,0.96
Paraúna,3455020,-16.9478,-50.4486,298.36,74,28,0.54
Yurgamysh,1485721,55.3714,64.4656,244.68,86,0,1.77
Agustin Codazzi,3792383,10.0341,-73.2361,304.46,45,100,1.92
Kathu,1153035,7.9178,98.3332,298.02,78,20,4.12
Wajir,178443,1.7471,40.0573,301.3,29,1,3.01
Ust-Tsilma,477940,65.441,52.1498,248.52,85,88,1.45
Moranbah,6533368,-22.0016,148.0466,297.2,69,1,7.34
Yerofey Pavlovich,2012938,53.9667,121.9667,242.34,82,47,0.84
Red Wing,5042773,44.5625,-92.5338,277.25,70,90,3.09
Leh,1264976,34.1667,77.5833,257.81,26,0,0.43
Taoudenni,2450173,22.6783,-3.9836,290.07,28,0,5.43
Whitehorse,6180550,60.7161,-135.0538,268.28,68,75,5.14
Oktyabr'skiy,515879,54.4815,53.471,252.17,90,97,2.05
Bahía Blanca,3865086,-38.7196,-62.2724,302.85,20,23,3.79
San Quintín,3984997,30.4833,-115.95,292.85,26,0,2.15
Harper,2276492,4.375,-7.7169,299.08,81,61,2.24
Berbera,64435,10.4396,45.0143,296.53,57,0,2.71
Taveta,179525,-3.3963,37.6736,295.15,73,20,2.57
Camacha,2270385,33.0833,-16.3333,286.15,67,20,3.6
Rocky Mountain House,6126749,52.3668,-114.9188,274.15,44,100,8.75
Kamina,214614,-8.7386,24.9906,291.4,99,100,1.83
Pahrump,5509851,36.2083,-115.9839,288.89,15,87,0.89
Puerto Escondido,3520994,15.85,-97.0667,302.15,74,40,3.6
Roberval,6125653,48.5168,-72.2324,272.15,80,90,3.09
Majene,1636806,-3.5403,118.9707,298.99,83,99,2.07
Nome,5870133,64.5011,-165.4064,265.15,93,90,2.57
Manta,3654410,-0.95,-80.7333,304.15,62,75,5.14
Marquette,5000950,46.5333,-87.6335,273.15,83,1,0.89
Chokwé,1048364,-24.5333,32.9833,297.58,88,2,2.12
Salta,3838233,-24.7859,-65.4117,294.15,78,75,1.03
Mezhdurechensk,1498920,53.6942,88.0603,252.73,89,100,1.81
Nemuro,2128975,43.3236,145.575,274.45,87,100,6.39
Road Town,3577430,18.4167,-64.6167,299.6,74,40,4.63
Eyl,60019,7.9803,49.8164,295.59,76,16,8.54
Nhulunbuy,2064735,-12.2333,136.7667,300.15,94,0,0.51
Gardabani,614575,41.4605,45.0928,278.15,93,75,1.54
Yar-Sale,1486321,66.8333,70.8333,258.62,89,100,7.84
Alice Springs,2077895,-23.7,133.8833,299.15,41,0,1.03
Saint-Augustin,6137462,51.226,-58.6502,266.59,91,6,1.38
Sabang,1214026,5.8933,95.3214,300.21,80,100,8.55
Flinders,6255012,-34.5833,150.8552,297.04,82,69,0.89
Port Hardy,6111862,50.6996,-127.4199,280.15,76,75,2.06
Alta Floresta,6316343,-9.8756,-56.0861,300.15,83,90,1.03
Province of Groningen,2755249,53.25,6.75,275.05,69,41,4.12
Shingū,1847947,33.7333,135.9833,277.53,81,0,2.75
Finschhafen,2097418,-6.6024,147.8681,301.08,77,100,3.48
Verkhniy Baskunchak,475196,48.2256,46.7217,271.77,95,100,8.85
Pueblo Nuevo,4007676,23.3833,-105.3833,291.19,25,21,2.61
Ternate,1624041,0.8,127.4,300.14,78,94,1.88
San Rafael,3836669,-34.6177,-68.3301,300.98,43,57,7.24
Inuvik,5983607,68.3499,-133.7218,248.64,84,65,0.51
Baruun-Urt,2032614,46.6806,113.2792,251.72,84,100,0.72
Wakkanai,2127515,45.4094,141.6739,270.19,96,100,5.31
Kautokeino,779330,69.0125,23.0412,251.15,88,100,2.49
Narsaq,3421719,60.9167,-46.05,272.15,80,90,2.06
Ballitoville,1021360,-29.539,31.2144,297.15,88,20,0.51
San Luis,3837056,-33.295,-66.3356,299.89,46,57,6.16
Sola,2134814,-13.8833,167.55,303.15,79,75,3.87
Fredericton,5957776,45.9454,-66.6656,272.95,55,90,1.03
Vestmanna,2610343,62.1564,-7.1664,277.15,93,75,8.23
Great Falls,5655240,47.5002,-111.3008,277.57,28,1,22.64
Okhotsk,2122605,59.3833,143.3,246.83,79,0,4.63
Buala,2109528,-8.145,159.5921,301.35,75,77,3.51
Kitimat,5993072,54.0524,-128.6534,275.93,95,100,0.45
Fuengirola,2517595,36.54,-4.6247,283.21,43,0,5.66
Pascagoula,4440397,30.3658,-88.5561,285.44,50,1,2.57
Saint-Marc-des-Carrieres,6138719,46.6834,-72.0491,272.55,86,100,1.03
Kuito,3348078,-12.3833,16.9333,289.23,88,100,2.06
Kadaya,2023324,50.9327,119.2911,239.03,84,3,0.28
Kyra,2021041,49.5776,111.9753,249.19,81,97,1.52
Kaihua,1804874,23.3687,104.28,277.11,81,20,0.88
Carmona,1718307,14.3,121.0167,296.68,83,20,0.51
Prince Rupert,6113406,54.3161,-130.3201,279.45,75,40,4.12
Heihe,2036973,50.2441,127.4902,246.15,76,0,2.0
