City,Country,City ID,Latitude,Longitude,temperature,humidity,cloudiness,wind speed
Te Anau,NZ,2181625,-45.4167,167.7167,75.51,39,0,5.66
Mataura,NZ,6201424,-46.1927,168.8643,73.87,53,16,7.65
Nanortalik,GL,3421765,60.1432,-45.2371,28.99,94,100,11.14
Kapaa,US,5848280,22.0752,-159.319,72.82,78,20,18.41
Hearst,CA,5973108,49.6835,-83.6665,26.6,93,89,2.3
Qaanaaq,GL,3831208,77.484,-69.3632,-1.61,78,25,4.45
Chokurdakh,RU,2126123,70.6333,147.9167,-26.19,86,100,6.51
New Norfolk,AU,2155415,-42.7826,147.0587,66.63,53,80,1.99
Cidreira,BR,3466165,-30.1811,-50.2056,70.48,71,24,15.23
Saldanha,ZA,3361934,-33.0117,17.9442,62.6,88,0,2.3
Jamestown,US,5122534,42.097,-79.2353,35.73,75,1,8.05
Saint George,US,5546220,37.1041,-113.5841,43.14,21,1,2.62
Poum,NC,2138555,-20.2333,164.0167,81.36,83,100,12.35
Avarua,CK,4035715,-21.2078,-159.775,84.2,70,75,18.41
Magadan,RU,2123628,59.5667,150.8,-7.13,82,53,6.82
Narsaq,GL,3421719,60.9167,-46.05,28.4,86,90,2.1
Dagana,MR,2246550,16.5165,-15.5068,69.8,43,0,2.3
Chodavaram,IN,1274020,17.8333,82.95,69.8,100,51,2.3
Rikitea,PF,4030556,-23.1203,-134.9692,77.92,77,71,11.61
Vila Franca do Campo,PT,3372472,37.7167,-25.4333,60.91,94,75,12.66
Port Alfred,ZA,964432,-33.5906,26.891,66.99,97,100,1.99
Punta Arenas,CL,3874787,-53.15,-70.9167,53.29,71,90,13.8
Cape Town,ZA,3369157,-33.9258,18.4232,67.73,77,0,6.91
Hobart,AU,2163355,-42.8794,147.3294,69.73,35,40,13.8
Esmeraldas,BR,3464008,-19.7625,-44.3139,71.6,78,0,3.44
Hilo,US,5855927,19.7297,-155.09,74.5,57,1,8.12
Eau Claire,US,5251436,44.8114,-91.4985,33.51,80,90,6.13
Saint-Philippe,RE,935215,-21.3585,55.7679,74.1,78,75,2.3
Bredasdorp,ZA,1015776,-34.5322,20.0403,68.0,88,99,11.5
Pokhara,NP,1282898,28.2333,83.9833,61.66,46,12,3.15
Tilichiki,RU,2120591,60.4667,166.1,-23.94,85,0,7.81
Padang,ID,1633419,-0.9492,100.3543,86.0,62,20,1.14
Horki,BY,627905,54.2861,30.9842,12.13,96,100,10.8
Cabo San Lucas,MX,3985710,22.8909,-109.9124,61.95,67,1,4.61
Bani Walid,LY,2218840,31.7566,13.9942,48.42,52,0,12.77
Misratah,LY,2214846,32.3754,15.0925,57.67,69,48,19.6
Ushuaia,AR,3833367,-54.8,-68.3,51.8,71,75,4.94
Ixtapa,MX,4004293,20.7,-105.2,66.2,88,90,2.3
Sept-Îles,CA,6144312,50.2001,-66.3821,20.48,86,100,4.61
Hithadhoo,MV,1282256,-0.6,73.0833,82.09,76,47,21.52
Lüderitz,NA,3355672,-26.6481,15.1594,65.14,87,96,5.26
Yellowknife,CA,6185377,62.456,-114.3525,12.06,92,90,9.22
Kiunga,PG,2093846,-6.1219,141.2906,96.49,46,81,1.1
Carnarvon,AU,2074865,-24.8667,113.6333,86.0,70,45,14.97
Kumba,CM,2229752,4.6363,9.4469,71.83,93,27,1.77
Sundsvall,SE,2670781,62.3913,17.3063,14.0,79,90,18.41
Fairbanks,US,5861897,64.8378,-147.7164,-6.9,77,75,1.14
Kayalpattinam,IN,1267361,8.5667,78.1167,75.2,100,90,3.44
Bathsheba,BB,3374083,13.2167,-59.5167,78.8,73,40,16.11
Saskylakh,RU,2017155,71.9167,114.0833,-46.59,75,62,8.7
Petatlán,MX,3992842,17.5167,-101.2667,75.0,60,41,2.8
Nouakchott,MR,2377450,18.0858,-15.9785,60.8,21,100,12.66
Vaini,TO,4032243,-21.2,-175.2,86.0,79,75,8.05
Khatanga,RU,2022572,71.9667,102.5,-37.71,81,94,11.81
Uribia,CO,3666409,11.7139,-72.266,76.93,70,82,17.81
Codrington,AU,2171099,-38.2667,141.9667,60.26,78,96,16.75
Karratha,AU,6620339,-20.7377,116.8463,105.58,20,6,11.03
Tura,IN,1254046,25.5198,90.2201,70.2,32,0,1.77
Hambantota,LK,1244926,6.1241,81.1185,78.8,100,75,4.61
Hong Kong,HK,1819729,22.2855,114.1577,62.53,37,36,1.01
Xining,CN,1788852,36.6167,101.7667,28.11,51,17,0.94
Hermanus,ZA,3366880,-34.4187,19.2345,70.0,86,81,5.01
Mahanoro,MG,1062553,-19.9,48.8,80.56,77,1,5.68
Killarney,IE,2963370,52.05,-9.5167,47.52,91,99,6.55
Arraial do Cabo,BR,3471451,-22.9661,-42.0278,75.49,89,15,18.28
Barrow,US,5880054,71.2906,-156.7887,-9.4,77,1,16.11
Busselton,AU,2075265,-33.65,115.3333,73.0,40,100,1.99
Ubinskoye,RU,1488708,55.3068,79.6802,-12.59,90,100,10.09
Blackwater,AU,2175403,-23.5833,148.8833,91.76,24,1,14.25
Cobán,GT,3598119,15.4833,-90.3667,58.26,100,98,1.79
Upernavik,GL,3418910,72.7868,-56.1549,11.21,96,100,15.86
Bluff,NZ,2206939,-46.6,168.3333,61.72,78,8,3.83
Iqaluit,CA,5983720,63.7506,-68.5145,-13.0,70,20,2.3
Lebu,CL,3883457,-37.6167,-73.65,54.14,87,1,16.17
Dumas,US,5520552,35.8656,-101.9732,43.27,45,1,9.22
Provideniya,RU,4031574,64.3833,-173.3,3.2,72,75,4.47
The Valley,AI,3573374,18.217,-63.0578,75.99,88,75,10.36
Port Elizabeth,ZA,964420,-33.918,25.5701,69.8,88,90,12.66
Butaritari,KI,2110227,3.0707,172.7902,81.43,78,73,17.94
Marawi,PH,1701054,7.9986,124.2928,80.01,87,91,4.0
Thompson,CA,6165406,55.7435,-97.8558,26.6,100,90,3.44
Nadym,RU,1498087,65.5333,72.5167,-0.53,86,93,18.05
Bonavista,CA,5905393,48.6499,-53.1147,28.11,93,80,2.3
Jertih,MY,1736405,5.7336,102.4897,80.31,74,20,10.36
Torbay,CA,6167817,47.6666,-52.7314,28.96,93,90,6.91
Albany,US,5106841,42.6001,-73.9662,29.91,65,100,3.44
Clyde River,CA,5924351,70.4692,-68.5914,-4.0,84,90,6.91
Hasaki,JP,2112802,35.7333,140.8333,54.91,47,20,6.91
Port Lincoln,AU,2063036,-34.7333,135.8667,65.28,50,24,15.59
Sitka,US,5557293,57.0531,-135.33,37.4,87,90,10.36
Bambous Virieux,MU,1106677,-20.3428,57.7575,79.83,83,40,5.75
San Blas,MX,3987544,21.5167,-105.2667,65.14,59,100,2.71
Chālūs,IR,139223,36.655,51.4204,41.0,100,0,2.3
Kaitangata,NZ,2208248,-46.2817,169.8464,64.0,78,21,17.0
Souillac,MU,933995,-20.5167,57.5167,78.8,83,40,5.75
Port Angeles,US,5807212,48.1181,-123.4307,40.62,81,1,5.3
Airai,TL,1651810,-8.9266,125.4092,75.49,78,100,2.15
Adana Province,TR,325361,36.985,35.2881,47.48,100,20,1.14
Pleasanton,US,5383777,37.6624,-121.8747,57.54,82,1,3.44
Quatre Cocos,MU,1106643,-20.2078,57.7625,79.95,83,40,5.75
Kushima,JP,1895695,31.4583,131.2333,56.79,47,20,5.75
Naze,JP,1855540,28.3667,129.4833,62.6,51,40,10.36
Saint-Joseph,RE,6690296,-21.3667,55.6167,75.06,78,75,2.3
Laguna,US,5364271,38.421,-121.4238,56.17,82,1,11.5
Saddiqabad,PK,1166652,28.3062,70.1307,68.68,17,100,2.93
Dikson,RU,1507390,73.5069,80.5464,-29.15,82,0,7.65
Lata,PT,2738381,40.1629,-8.3327,40.26,92,4,2.86
Gari,RU,1506676,59.4307,62.3497,-14.06,88,0,7.07
Bundaberg,AU,2173323,-24.85,152.35,87.06,45,32,14.97
Las Varas,MX,3999162,21.1667,-105.1667,66.2,88,90,2.3
Port Hedland,AU,2063042,-20.3167,118.5667,111.2,13,0,8.05
Kiama,AU,2161515,-34.6833,150.8667,91.0,62,20,4.0
Arrondissement de Pontarlier,FR,2986301,46.8333,6.25,37.51,93,100,10.0
Tasiilaq,GL,3424607,65.6145,-37.6368,32.0,80,75,14.12
Avera,US,4231997,33.194,-82.5271,38.86,100,1,7.9
Basqal,AZ,587033,40.7552,48.391,42.8,87,90,5.39
Tuatapere,NZ,2180815,-46.1333,167.6833,64.09,73,47,6.24
Omboué,GA,2396853,-1.5746,9.2618,72.81,92,99,4.16
Saint Paul Harbor,US,5866583,57.79,-152.4072,33.8,86,75,3.44
São Filipe,CV,3374210,14.8961,-24.4956,70.93,73,99,11.86
Faanui,PF,4034551,-16.4833,-151.75,81.63,75,92,15.88
Zdvinsk,RU,1485312,54.7021,78.661,-14.57,89,100,9.28
Anchorage,US,5879400,61.2181,-149.9003,22.75,73,1,3.44
Ribeira Grande,PT,3372707,38.5167,-28.7,63.54,83,54,23.06
Ban Nahin,LA,1661950,18.2418,104.2122,73.0,42,12,1.88
Longyearbyen,SJ,2729907,78.2186,15.6401,19.4,79,75,6.91
Fernley,US,5504003,39.608,-119.2518,47.52,62,76,6.46
Susurluk,TR,300058,39.9136,28.1578,43.95,81,75,6.91
Asenovgrad,BG,733618,42.0167,24.8667,34.79,51,31,16.11
Kahului,US,5847411,20.8947,-156.47,75.61,61,20,10.36
Evensk,RU,2125693,61.95,159.2333,-18.2,74,80,5.37
Waddān,LY,2209055,29.1614,16.139,45.43,69,0,6.67
Bethel,US,5282297,41.3712,-73.414,31.06,86,1,3.91
Hualmay,PE,3939761,-11.0964,-77.6139,70.16,86,100,6.11
Cuyo,PH,1716397,10.8525,121.0086,80.85,82,16,23.2
Aksha,RU,2028028,50.2814,113.2867,-1.86,80,30,3.47
Philadelphia,US,4560349,39.9523,-75.1638,36.36,64,20,3.44
Abay,KZ,1526970,49.6311,72.8539,-29.2,68,0,8.95
Pevek,RU,2122090,69.7008,170.3133,-17.03,89,100,1.83
Puerto Ayora,EC,3652764,-0.7393,-90.3518,75.0,95,82,4.0
Podgornoye,RU,508362,51.735,39.1496,33.8,93,90,8.95
George Town,MY,1735106,5.4112,100.3354,81.57,69,20,8.05
Santa Inês,BR,3389609,-3.6667,-45.38,73.2,96,96,3.24
Hiratachō,JP,1862471,35.4333,132.8167,54.66,54,40,14.97
Castro,BR,3466704,-24.7911,-50.0119,64.17,93,83,10.11
Manjacaze,MZ,1040938,-24.7117,33.8828,75.72,90,0,3.36
Pionki,PL,762199,51.476,21.4499,31.68,97,89,3.87
Sakakah,SA,102527,29.9697,40.2064,55.4,41,0,9.22
Toora-Khem,RU,1489401,52.4675,96.11,-6.7,87,89,0.78
Lakki,PK,1172339,32.6079,70.9114,59.32,31,14,0.81
Aripuanã,BR,3665202,-9.1667,-60.6333,73.81,99,100,2.21
Rocha,UY,3440777,-34.4833,-54.3333,55.74,79,0,4.81
Española,US,5467024,35.9911,-106.0806,33.08,38,1,3.44
Oxford,GB,2640729,51.7522,-1.256,49.26,93,90,6.91
Mahébourg,MU,934322,-20.4081,57.7,78.8,83,40,5.75
Cherskiy,RU,2126199,68.75,161.3,-25.24,86,98,4.05
Villa María,AR,3832694,-32.4075,-63.2402,70.0,74,1,1.99
Riyadh,SA,108410,24.6877,46.7219,43.23,42,0,5.03
Taltal,CL,3870243,-25.4,-70.4833,63.05,74,10,1.54
Launceston,AU,2160517,-41.45,147.1667,71.6,37,40,10.36
Alizai,PK,1184626,33.5383,70.3462,52.5,36,59,0.47
Bonthe,SL,2409914,7.5264,-12.505,77.11,88,0,1.72
Manggar,ID,1636426,-2.8833,108.2667,79.77,84,100,9.55
Stará Ves nad Ondřejnicí,CZ,3065379,49.7277,18.1885,29.44,93,75,14.97
Forsytheganj,BY,10722858,52.6333,29.7333,14.94,97,90,5.19
Nueve de Julio,AR,3842881,-35.4444,-60.8831,68.0,42,0,1.99
Santa Isabel Rio Negro,BR,3662489,-0.4139,-65.0192,74.59,90,36,1.01
Helena,US,5656882,46.5927,-112.0361,35.2,38,1,24.16
Sharan,RU,495770,54.8167,54.0,1.56,91,98,14.94
Nemuro,JP,2128975,43.3236,145.575,30.2,93,40,3.44
Jiaojiang,CN,1809061,28.6803,121.4428,56.01,19,0,5.23
Norman Wells,CA,6089245,65.282,-126.8329,1.4,85,90,9.22
Biak,ID,1637001,-0.9131,122.8766,84.43,70,52,0.72
Esperance,AU,2071860,-33.8667,121.9,69.8,40,100,14.97
Pasni,PK,1168312,25.2631,63.471,65.35,27,0,8.86
San Jose,US,5392171,37.3394,-121.895,57.51,82,40,3.44
Lichuan,CN,1803782,30.3,108.85,46.76,53,0,3.87
Ambon City,ID,1651531,-3.6954,128.1814,89.6,66,40,6.91
Guerrero Negro,MX,4021858,27.9769,-114.0611,59.36,56,0,8.68
Susa,IR,114593,32.1942,48.2436,52.34,44,100,1.43
Lovozero,RU,533933,68.005,35.0117,-3.95,87,29,4.0
Labuan,MY,1733782,5.2767,115.2417,78.39,89,20,3.44
Kamenka,RU,553766,51.3223,42.7678,31.96,98,100,21.97
Kailua,US,5847486,21.4022,-157.7394,77.13,65,75,6.91
Coyhaique,CL,3894426,-45.5752,-72.0662,51.8,82,0,2.3
Nikolskoye,RU,546105,59.7035,30.7861,5.27,78,40,6.71
Ancud,CL,3899695,-41.8697,-73.8203,49.46,87,0,2.3
Oistins,BB,3373652,13.0667,-59.5333,78.8,73,40,16.11
East London,ZA,1006984,-33.0153,27.9116,69.8,94,90,10.36
Umm Bāb,QA,289548,25.2142,50.8072,48.2,87,1,3.44
Chipinge,ZW,893549,-20.1883,32.6236,64.49,99,80,3.09
Katsuura,JP,2112309,35.1333,140.3,54.48,50,20,9.22
Khasan,RU,2039557,42.4308,130.6434,21.04,72,0,15.3
Shamli,IN,1256671,29.45,77.3167,49.12,50,75,0.58
Yaan,NG,2338660,7.3833,8.5667,71.74,92,2,4.88
Constitución,CL,3893726,-35.3333,-72.4167,52.81,78,0,10.98
Kutum,SD,371745,14.2,24.6667,52.05,42,0,6.17
Lorengau,PG,2092164,-2.0226,147.2712,86.04,65,94,9.42
Grafton,US,4938048,42.207,-71.6856,32.72,60,90,6.91
Chui,UY,3443061,-33.6971,-53.4616,61.97,65,0,8.55
Mananjary,MG,1061335,-21.2167,48.3333,79.75,83,11,7.74
Faya,SA,110690,18.3851,42.4509,46.4,81,0,2.86
Chara,RU,2025630,56.9064,118.2631,-21.6,71,20,0.89
Henties Bay,NA,3356832,-22.116,14.2845,69.01,86,100,5.97
Ilulissat,GL,3423146,69.2167,-51.1,24.8,86,90,13.8
Bilma,NE,2446796,18.6853,12.9164,60.39,47,100,13.35
Redlands,US,5386754,34.0556,-117.1825,59.47,31,1,3.44
Novosokol'niki,RU,517921,56.3463,30.1578,14.11,96,100,11.68
Santa Luzia,BR,3450144,-19.7697,-43.8514,71.6,73,0,8.05
Il’inskiy,RU,557140,55.619,38.1182,7.97,85,90,13.42
New Castle,US,5203127,41.0037,-80.347,38.12,65,90,3.44
Mogadishu,SO,53654,2.0371,45.3438,75.31,83,1,18.5
Burnie,AU,2173125,-41.0667,145.9167,66.0,59,56,20.0
Vila Velha,BR,3445026,-20.3297,-40.2925,75.94,83,75,8.05
Beringovskiy,RU,2126710,63.05,179.3167,-10.82,89,100,9.13
Yar-Sale,RU,1486321,66.8333,70.8333,2.14,90,96,14.34
Ponta do Sol,PT,2264557,32.6667,-17.1,48.29,58,92,1.99
Cayenne,GF,3382160,4.9333,-52.3333,78.8,83,75,6.91
Severo-Kuril'sk,RU,2121385,50.6789,156.125,21.87,84,64,1.9
Araouane,ML,2460954,18.9048,-3.5265,61.84,27,0,11.74
Yerbogachën,RU,2012956,61.2767,108.0108,-13.79,87,100,10.74
Progreso,MX,3521108,21.2833,-89.6667,69.91,94,75,14.94
Ikom,NG,2338242,5.9667,8.7063,71.6,94,4,2.1
Gao,ML,2457161,16.6362,1.637,69.51,21,0,9.66
Swan Hill,AU,2147756,-35.3378,143.5544,82.0,18,0,13.18
Nurota,UZ,1513087,40.5614,65.6886,33.8,69,0,11.5
Brewster,US,5110092,41.3973,-73.6171,31.01,86,1,3.78
Bayanday,RU,2027004,53.0661,105.5139,-15.83,86,65,4.54
Baturyn,UA,712745,51.3457,32.8779,18.16,97,81,4.41
Dabakala,CI,2290609,8.3667,-4.4333,75.02,67,0,4.07
Carbonear,CA,5916722,47.7332,-53.2148,28.81,93,90,6.91
Show Low,US,5314245,34.2542,-110.0298,30.67,23,1,4.88
Kampot,KH,1831112,10.6167,104.1833,80.6,44,0,9.22
Edson,CA,5946820,53.5835,-116.4356,28.4,54,1,12.66
Tuktoyaktuk,CA,6170031,69.4541,-133.0374,-11.2,77,75,3.13
Bengkulu,ID,1649150,-3.8004,102.2655,83.68,62,100,1.88
Makakilo City,US,5850554,21.3469,-158.0858,79.0,65,40,11.5
San Policarpo,PH,1688696,12.1791,125.5072,83.19,69,2,6.44
Curup,ID,1645875,-3.4667,102.5333,78.35,64,100,1.36
Atuona,PF,4020109,-9.8,-139.0333,77.83,76,31,12.1
Bam,IR,141736,29.106,58.357,45.52,36,0,0.78
Saint-Augustin,CA,6137462,51.226,-58.6502,20.03,92,67,6.17
Vostok,RU,2013279,46.4856,135.8833,1.62,90,100,7.78
Mar del Plata,AR,3430863,-38.0023,-57.5575,63.43,59,0,11.5
Xiaoshi,CN,2033934,41.2971,124.1209,17.6,57,94,8.95
Taoudenni,ML,2450173,22.6783,-3.9836,56.35,36,0,15.1
Verkhniye Tatyshly,RU,475030,56.2912,55.8575,-3.64,90,99,6.58
Thessalon,CA,6164831,46.2501,-83.5666,32.0,100,90,3.98
Ḩasanābād,IR,7052836,36.5465,61.0543,41.0,60,0,11.5
Sambava,MG,1056899,-14.2667,50.1667,78.66,87,56,3.38
Birin,NP,1283334,26.8865,88.0718,54.12,62,11,3.76
Fort Nelson,CA,5955902,58.8053,-122.7002,12.2,92,40,3.44
Nantucket,US,4944903,41.2835,-70.0995,39.11,70,90,6.91
Sechura,PE,3691954,-5.5569,-80.8222,73.27,75,98,12.19
Broken Hill,AU,2173911,-31.95,141.4333,80.6,24,0,14.97
Morondava,MG,1058381,-20.2833,44.2833,82.36,80,99,5.1
Tullow,IE,2961079,52.8003,-6.7369,47.98,94,100,5.99
Chifeng,CN,2038067,42.2683,118.9636,11.03,92,100,1.92
Praia,CV,3374333,14.9215,-23.5087,69.8,68,40,20.71
Grand Gaube,MU,934479,-20.0064,57.6608,81.0,74,8,8.01
Vrede,ZA,942701,-27.4257,29.1659,59.95,93,96,3.87
Tshikapa,CD,204953,-6.4167,20.8,70.9,93,100,1.92
Roald,NO,3141667,62.5833,6.1333,23.0,80,0,8.05
Southbridge,US,4951594,42.0751,-72.0334,31.03,64,82,4.68
Nome,US,5870133,64.5011,-165.4064,17.6,93,90,9.22
Basco,PH,1726449,20.4487,121.9702,70.34,75,47,20.18
Stokmarknes,NO,3136690,68.5646,14.9108,33.8,80,75,2.3
Lienz,AT,2772505,46.8289,12.769,27.68,93,100,6.04
Sisimiut,GL,3419842,66.9395,-53.6735,17.33,95,100,3.87
Bāndarban,BD,1185270,22.1965,92.2262,66.2,68,75,3.44
Yulara,AU,6355222,-25.2406,130.9889,102.2,13,0,10.36
Hofn,IS,2630299,64.2539,-15.2082,42.71,88,100,24.0
Klin,RU,547523,56.3333,36.7333,6.8,85,90,17.9
Yatou,CN,1786855,37.15,122.3833,41.13,70,0,16.08
Villarrica,PY,3436714,-25.75,-56.4333,75.58,85,8,5.32
Devarkonda,IN,1273109,16.7,78.9333,75.42,69,1,6.02
Okhotsk,RU,2122605,59.3833,143.3,-11.36,81,0,9.08
Freeport,US,5117949,40.6576,-73.5832,35.91,69,75,10.4
Mount Gambier,AU,2156643,-37.8333,140.7667,64.4,59,75,18.41
City of Passi,PH,1694500,11.15,122.65,82.6,83,71,12.95
San Cristobal,VE,3628473,7.7669,-72.225,62.44,85,100,1.79
Galle,LK,1246294,6.0367,80.217,80.73,74,99,9.24
Ihosy,MG,1064275,-22.4,46.1167,72.9,80,20,3.89
Nouadhibou,MR,2377457,20.931,-17.0347,59.0,67,100,14.97
Los Llanos de Aridane,ES,2514651,28.6585,-17.9182,58.03,59,90,6.91
Yarmouth,US,4956335,41.7057,-70.2286,36.14,75,90,7.72
Zhigansk,RU,2012530,66.7697,123.3711,-41.01,79,73,10.89
Fukuechō,JP,1863997,32.6881,128.8419,59.0,55,40,1.14
Klaksvík,FO,2618795,62.2266,-6.589,39.2,81,20,23.02
Mackay,AU,2159220,-21.15,149.2,82.4,69,33,16.11
Arrondissement de Cholet,FR,3025052,47.1667,-1.0,46.0,95,99,9.01
Kieta,PG,2094027,-6.2167,155.6333,85.98,58,100,5.17
Kruisfontein,ZA,986717,-34.0033,24.7314,70.0,89,98,4.0
Praia da Vitória,PT,3372760,38.7333,-27.0667,60.46,88,40,14.45
Morro Bay,US,5374920,35.3658,-120.8499,57.72,45,100,8.9
Lavrentiya,RU,4031637,65.5833,-171.0,-1.79,91,100,3.83
Leningradskiy,RU,2123814,69.3833,178.4167,-6.43,90,100,1.45
Amarkantak,IN,1278905,22.6667,81.75,62.2,28,0,3.27
Fortuna,US,5563839,40.5982,-124.1573,54.57,100,90,2.21
Bubaque,GW,2374583,11.2833,-15.8333,77.79,65,0,8.01
Buchanan,LR,2278158,5.8808,-10.0467,75.2,94,40,4.47
Atar,MR,2381334,20.5169,-13.0499,60.91,28,91,15.39
Srednekolymsk,RU,2121025,67.45,153.6833,-18.42,88,100,6.17
Zhangye,CN,1785036,38.9342,100.4517,24.46,74,63,7.92
Kalmunai,LK,1242110,7.4167,81.8167,77.41,86,98,2.84
Freetown,SL,2409306,8.484,-13.2299,77.09,85,2,3.44
Turukhansk,RU,1488903,65.8167,87.9833,-23.64,85,100,7.65
Pacific Grove,US,5380437,36.6177,-121.9166,56.26,76,1,5.75
Fuerte,PH,1713558,17.5381,120.3644,82.18,59,25,7.78
Salto,UY,3440714,-31.3833,-57.9667,72.0,63,0,11.01
Durango,MX,4011741,24.8333,-104.8333,42.04,56,0,2.35
Rincon,US,4218882,32.296,-81.2354,43.79,93,90,4.61
Sittwe,MM,1295765,20.15,92.9,72.82,47,61,4.72
Andenes,NO,3163146,69.3143,16.1194,31.6,80,90,4.61
Anadyr,RU,2127202,64.75,177.4833,-5.8,77,40,11.18
Nyurba,RU,2018735,63.2842,118.3319,-14.71,86,100,8.66
Karoi,ZW,889191,-16.8099,29.6925,63.27,99,86,5.79
Luau,AO,876177,-10.7073,22.2247,63.01,99,100,3.09
Ponta Delgada,PT,3372783,37.7333,-25.6667,60.91,94,75,12.66
Akola,IN,1279105,20.7333,77.0,72.05,23,8,6.02
Palanga,LT,596238,55.9175,21.0686,28.4,93,75,10.36
Yucca Valley,US,5411079,34.1142,-116.4322,55.0,27,71,4.0
Haines Junction,CA,5969025,60.7522,-137.5108,5.0,92,33,3.44
Alyangula,AU,2079582,-13.8483,136.4192,77.0,100,90,3.44
Namatanai,PG,2090021,-3.6667,152.4333,85.32,65,97,11.27
Kavaratti,IN,1267390,10.5669,72.642,80.78,73,89,6.44
Awjilah,LY,88533,29.1081,21.2869,52.23,64,52,16.62
Yemtsa,RU,467527,63.0734,40.3329,-22.04,87,14,4.47
Lambaréné,GA,2399888,-0.7001,10.2406,71.58,93,87,1.12
Kudahuvadhoo,MV,1337607,2.6708,72.8944,82.09,75,64,17.18
Singaraja,ID,1626932,-8.112,115.0882,86.95,63,100,5.64
Plettenberg Bay,ZA,964712,-34.0527,23.3716,69.44,89,7,7.11
Edd,ER,338345,13.9297,41.6925,74.61,46,2,11.72
Tuban,ID,1623180,-6.8976,112.0649,84.88,70,100,6.11
Pozo Colorado,PY,3437443,-23.4923,-58.7972,78.21,80,100,2.1
Porlamar,VE,3629965,10.958,-63.8491,76.5,87,82,12.5
Acapulco de Juárez,MX,3533462,16.8634,-99.8901,80.6,78,20,11.5
Lagoa,PT,3372964,39.05,-27.9833,61.43,88,64,16.55
Salinas,US,5391295,36.6777,-121.6555,56.03,67,1,6.91
Kloulklubed,PW,7671223,7.0419,134.2556,84.2,79,90,6.91
Merrill,US,5262680,45.1805,-89.6835,22.69,93,1,2.68
Aksu,CN,1529660,41.1231,80.2644,26.2,67,0,1.21
Pachino,IT,6539213,36.7186,15.0907,46.0,79,0,1.01
Iskateley,RU,866062,67.6803,53.1512,-10.19,85,95,12.03
Tocopilla,CL,3869716,-22.092,-70.1979,66.96,66,42,6.08
Carutapera,BR,3402648,-1.195,-46.02,77.67,83,70,7.43
Pānchgani,IN,1260577,17.9167,73.8167,67.8,58,22,4.27
Altay,CN,1529651,47.8667,88.1167,-2.79,83,92,1.45
Bernalillo,US,5457180,35.05,-106.6673,44.56,23,75,10.36
Muswellbrook,AU,2156034,-32.2667,150.9,100.0,18,2,11.01
São Félix do Xingu,BR,3388847,-6.6447,-51.995,71.42,96,91,1.23
Umluj,SA,100926,25.0213,37.2685,73.44,41,6,8.55
Alofi,NU,4036284,-19.0595,-169.9187,84.2,74,40,11.5
Geetbets,BE,2797762,50.8938,5.1126,36.77,93,75,4.61
Warragul,AU,2144604,-38.1667,145.9333,68.43,65,17,5.99
Talcahuano,CL,3870282,-36.7167,-73.1167,55.4,76,0,14.97
Horconcitos,PA,3702269,8.4682,-81.8007,65.64,88,67,5.88
Wamba,NG,2319257,8.9333,8.6,70.14,22,0,3.44
Constantine,DZ,2501152,36.365,6.6147,37.4,87,40,3.44
Rio Grande,BR,3451138,-32.035,-52.0986,68.0,68,0,1.99
Ukiah,US,5404476,39.1502,-123.2078,55.11,94,90,3.44
Deputatsky,RU,2028164,69.3,139.9,-34.49,83,94,1.77
Portland,US,5746545,45.5234,-122.6762,44.74,71,90,8.05
Chapada dos Guimarães,BR,3466307,-15.4606,-55.7497,77.0,94,40,4.61
Semporna,MY,1733697,4.4818,118.6112,84.2,79,20,4.61
Oranjemund,NA,3354071,-28.55,16.4333,65.01,91,9,5.86
Bad Fallingbostel,DE,2927871,52.8667,9.7,32.67,86,75,16.11
Lompoc,US,5367788,34.6391,-120.4579,60.93,82,1,4.61
Kabo,CF,2386042,7.6994,18.629,67.73,24,0,4.68
Ust-Tsilma,RU,477940,65.441,52.1498,-14.01,84,72,2.37
Port Hardy,CA,6111862,50.6996,-127.4199,39.49,100,75,5.75
Sioux Lookout,CA,6148373,50.1001,-91.917,24.8,100,90,8.05
Klerksdorp,ZA,989921,-26.8521,26.6667,65.07,77,20,6.2
Kondoa,TZ,156510,-4.9,35.7833,60.01,96,19,2.66
Safi,MA,2537881,32.2994,-9.2372,49.96,74,0,10.49
Srandakan,ID,1626493,-7.9386,110.2506,83.8,64,100,4.85
Elizabeth City,US,4465088,36.2946,-76.2511,38.98,87,1,5.75
Sangmélima,CM,2222230,2.9333,11.9833,67.55,92,81,1.43
Dingle,PH,1714733,10.9995,122.6711,80.38,86,100,12.15
Sola,VU,2134814,-13.8833,167.55,87.8,79,75,6.91
Nara,JP,1855612,34.6851,135.8049,56.5,54,20,9.22
Mthatha,ZA,946058,-31.5889,28.7844,68.0,94,100,3.44
Coquimbo,CL,3893629,-29.9533,-71.3436,57.2,88,0,9.22
Barranca,PE,3946820,-10.75,-77.7667,69.3,88,100,5.01
Vestmannaeyjar,IS,3412093,63.4427,-20.2734,43.93,76,92,14.34
Mt. Pleasant,US,4588165,32.7941,-79.8626,45.61,100,90,9.08
Nioro,GM,2412408,13.35,-15.75,71.22,21,0,9.48
Nalbari,IN,1258492,26.4456,91.4354,59.0,82,75,1.14
Yumen,CN,1528998,40.2833,97.2,27.43,65,96,17.05
Kupang,ID,2057087,-10.1667,123.5833,87.8,79,40,3.44
Zhezkazgan,KZ,1516589,47.8043,67.7144,-11.78,89,66,8.99
Ahipara,NZ,2194098,-35.1667,173.1667,71.71,70,14,7.34
Ostrovnoy,RU,556268,68.0531,39.5131,3.6,94,75,22.86
Vao,NC,2137773,-22.6667,167.4833,76.66,87,100,18.14
Ulladulla,AU,2145554,-35.35,150.4667,86.14,54,0,23.02
Kommunisticheskiy,RU,1502750,61.6789,64.4819,-9.42,86,0,5.88
Orocué,CO,3673536,4.7912,-71.3354,75.72,77,89,5.79
College,US,5859699,64.8569,-147.8028,-6.97,77,75,2.73
Teguise,ES,2510573,29.0605,-13.564,59.0,72,0,10.36
Isangel,VU,2136825,-19.55,169.2667,82.4,94,75,9.22
La Palma,US,5364022,33.8464,-118.0467,60.15,44,75,2.46
Øksfjord,NO,778362,70.2396,22.3479,8.89,72,76,8.05
Taihe,CN,1793684,30.8712,105.3845,50.27,47,0,4.29
Kyren,RU,2021031,51.6828,102.1408,-0.81,80,75,1.05
Kyzyl,RU,1500973,51.7,94.45,-3.95,83,7,1.03
Saint-Gilles,FR,2979679,43.6766,4.4302,45.18,70,0,5.75
Takoradze,GH,2294915,4.8845,-1.7554,78.15,88,85,6.55
Ingham,US,4997130,42.6,-84.3833,35.46,81,75,3.44
Novozybkov,RU,517269,52.5396,31.9275,17.6,86,75,6.71
Kavieng,PG,2094342,-2.5744,150.7967,85.23,70,87,14.23
Sobinka,RU,491480,55.9855,40.0111,2.16,93,100,14.45
Harper,LR,2276492,4.375,-7.7169,77.41,83,38,4.83
Navalmoral de la Mata,ES,2513324,39.8916,-5.5406,28.99,81,0,1.3
Elko,US,5703673,41.0002,-115.5012,39.96,61,90,2.26
Idukki,IN,1269811,9.85,76.9667,73.94,75,87,5.53
Brownsville,US,4676740,25.9018,-97.4975,48.47,76,1,4.29
Mayo,US,4362001,38.8876,-76.5119,33.58,78,1,3.44
Gushikawa,JP,1863495,26.3544,127.8686,66.9,49,90,11.5
La Palma del Condado,ES,2515679,37.3861,-6.5523,37.0,66,0,2.93
Bilibino,RU,2126682,68.0546,166.4372,-23.93,82,65,4.79
Mizdah,LY,2214827,31.4451,12.9801,43.47,61,0,7.96
Chinsali,ZM,918905,-10.5414,32.0816,63.68,96,100,4.9
Husavik,IS,2629833,66.0449,-17.3389,39.2,70,90,12.95
Half Moon Bay,US,5354943,37.4636,-122.4286,56.75,94,75,6.91
Jumla,NP,1283285,29.2747,82.1838,58.28,22,0,2.51
Aklavik,CA,5882953,68.2191,-135.0107,-14.8,84,100,4.34
San Ramon,US,5392593,37.7799,-121.978,56.75,82,1,3.44
Vardø,NO,777019,70.3705,31.1107,21.43,96,100,18.86
Richards Bay,ZA,962367,-28.783,32.0377,74.39,85,81,3.13
Aktyubinskiy,RU,583548,54.8137,52.8056,1.0,93,95,13.96
Paralímni,CY,146209,35.0375,33.9833,56.37,82,20,8.05
Edmond,US,4535740,35.6528,-97.4781,49.6,52,74,1.01
Caracolí,CO,3687451,6.4119,-74.7606,70.47,93,96,3.0
Nuuk,GL,3421319,64.1835,-51.7216,24.4,93,90,1.14
Aloleng,PH,1731298,16.1307,119.7824,82.56,64,40,8.9
Bolshaya Glushitsa,RU,486923,50.2406,43.5908,33.01,94,100,17.85
Port Shepstone,ZA,964406,-30.7414,30.455,74.53,82,74,2.15
Baghdad,IQ,98182,33.3406,44.4009,53.6,47,0,10.36
Tiksi,RU,2015306,71.6872,128.8694,-33.61,84,80,3.15
Sistranda,NO,3139597,63.7256,8.834,19.4,79,20,14.97
Were Īlu,ET,326259,10.6,39.4333,47.25,69,63,4.85
Toccoa,US,4226722,34.5773,-83.3324,37.47,87,1,5.14
Cranbrook,CA,5931800,49.4999,-115.7688,33.8,51,20,8.05
Labuhan,ID,8079926,-6.8844,112.2051,85.06,69,100,6.76
Mitsamiouli,KM,921786,-11.3847,43.2844,81.21,74,10,7.63
Rabo de Peixe,PT,3372745,37.8,-25.5833,60.91,94,75,12.66
Siuna,NI,3616253,13.7332,-84.7773,66.79,84,50,4.07
Russell,US,4047434,32.3502,-85.1999,36.54,80,1,4.16
Talnakh,RU,1490256,69.4865,88.3972,-28.25,77,1,6.93
Taksimo,RU,2015701,56.3444,114.8794,-20.81,75,88,0.92
Honiara,SB,2108502,-9.4333,159.95,86.16,61,99,6.49
Qiongshan,CN,1797535,20.0058,110.3542,68.0,56,0,6.71
West Wendover,US,5710035,40.7391,-114.0733,35.6,69,1,6.91
Ivanivka,UA,707453,46.7208,34.553,27.48,93,25,4.63
Chernyshevskiy,RU,2025456,63.0128,112.4714,-18.85,88,100,7.63
Mrągowo,PL,764312,53.8644,21.3051,28.4,100,75,3.44
Amga,RU,2027786,60.8953,131.9608,-37.5,79,92,0.89
Tromsø,NO,6453316,69.6496,18.957,26.28,68,75,16.11
Lázaro Cárdenas,MX,4026082,17.9583,-102.2,76.78,58,100,2.39
Raudeberg,NO,3146487,61.9875,5.1352,25.56,64,0,9.22
Bekasi,ID,1649378,-6.2349,106.9896,84.78,78,40,5.75
Mafinga,TZ,155405,-7.25,35.0667,66.15,96,94,1.88
Synya,RU,485215,65.3718,58.0387,-15.84,88,81,6.22
San Borja,BO,3905792,-14.8167,-66.85,74.32,94,100,0.51
San Patricio,US,4726521,28.017,-97.5169,46.99,87,1,8.05
Yakima,US,5816597,46.4665,-120.6678,38.52,56,1,4.61
Honningsvåg,NO,779554,70.9821,25.9704,36.14,83,100,17.09
Jalu,LY,86049,29.0331,21.5482,52.38,64,54,16.26
Dunedin,NZ,2191562,-45.8742,170.5036,66.69,63,6,10.54
Iquitos,PE,3696183,-3.7481,-73.2472,77.0,94,75,2.3
Kargil,IN,1267776,34.5667,76.1,-3.05,59,0,1.01
Eureka,US,5563397,40.8021,-124.1637,54.32,93,61,3.0
Nagorsk,RU,523583,59.3172,50.8078,-17.61,88,48,6.22
Abu Kamal,SY,174448,34.4506,40.9171,56.53,43,97,6.62
Cockburn Town,TC,3576994,21.4612,-71.1419,77.34,79,1,18.28
Diamantino,BR,3464724,-14.4086,-56.4461,74.91,82,86,1.92
Salalah,OM,286621,17.0151,54.0924,71.6,28,0,12.66
Zherdevka,RU,463217,51.8486,41.4606,34.88,98,100,18.28
Maniitsoq,GL,3421982,65.4167,-52.9,20.59,95,100,8.3
Matamoros,MX,3996426,25.5333,-103.25,49.28,40,1,1.88
Igrim,RU,1505965,63.1906,64.4162,-4.81,87,23,6.08
Washington,US,5815135,47.5001,-120.5015,32.56,78,50,4.47
Matara,LK,1235846,5.9485,80.5353,81.1,73,100,8.75
Winslow,US,5321473,35.0242,-110.6974,28.4,26,1,3.44
Hamilton,US,4513583,39.1834,-84.5333,39.42,60,90,10.36
Oranjestad,AW,3577154,12.524,-70.027,78.8,78,20,18.41
La Santisima Trinidad,BO,3902377,-14.8333,-64.9,75.18,93,100,1.59
Umm Kaddadah,SD,364933,13.6017,26.6876,63.14,29,0,12.97
Makat,KZ,608872,47.6469,53.3463,19.31,95,100,31.32
Montepuez,MZ,1037125,-13.1256,38.9997,69.71,98,24,5.64
Yamnytsya,UA,688512,48.9897,24.7075,28.54,95,100,5.21
Mīrābād,AF,1133310,30.4362,61.8383,45.66,41,0,2.33
Troy,US,5012639,42.6056,-83.1499,37.35,81,1,5.75
Mehamn,NO,778707,71.0357,27.8492,33.03,92,100,15.99
Maragogi,BR,3395458,-9.0122,-35.2225,76.86,80,100,8.01
Bonito,BR,3469294,-21.1211,-56.4819,73.4,92,100,3.58
El Alto,PE,3697441,-4.2714,-81.2147,71.22,77,86,17.49
Smithers,CA,6149996,54.7804,-127.1743,24.8,80,75,2.3
Port Moresby,PG,2088122,-9.4431,147.1797,87.8,70,40,13.8
Mangan,IN,1263776,27.5167,88.5333,65.03,38,17,3.2
Goderich,CA,5962442,43.7501,-81.7165,35.6,87,100,2.3
Aberystwyth,GB,2657782,52.4155,-4.0829,48.49,100,100,1.01
Vrangel',RU,2013258,42.7297,133.0839,19.24,78,2,15.9
Korla,CN,1529376,41.7597,86.1469,24.01,77,57,5.44
Pemberton,CA,6100799,50.3164,-122.8027,33.8,100,38,1.14
Rome,US,5134295,43.2128,-75.4557,29.77,69,90,8.05
Touros,BR,3386213,-5.1989,-35.4608,75.2,88,20,4.61
Kirensk,RU,2022083,57.7853,108.1119,-8.34,88,100,14.18
Grenville,GD,3580236,12.1167,-61.6167,78.8,78,20,11.5
Pangnirtung,CA,6096551,66.1451,-65.7125,-5.22,75,99,0.25
Colares,PT,2269142,38.7992,-9.4469,48.69,87,1,10.54
Hobyo,SO,57000,5.3505,48.5268,76.89,74,74,22.01
Tabou,CI,2281120,4.423,-7.3528,76.93,87,44,6.71
Karaidel',RU,552862,55.8337,56.9069,-3.14,89,91,4.56
Aliaga,PH,1731529,15.5167,120.8667,86.0,54,75,4.61
Geraldton,AU,2070998,-28.7667,114.6,96.8,20,0,14.97
Santiago de Chuco,PE,3692072,-8.15,-78.1833,51.67,78,100,0.76
Piranshahr,IR,121110,36.701,45.1413,37.72,78,37,7.61
Ol'ga,RU,2018553,43.7444,135.2892,17.46,75,0,15.01
Salisbury,GB,2638664,51.0693,-1.7957,50.0,93,90,12.75
Arauca,CO,3689718,7.0847,-70.7591,72.95,82,80,3.91
Matveyevka,RU,528521,52.15,56.1833,1.4,71,97,17.9
Vakhrushev,RU,2119964,48.9833,142.9667,8.8,87,17,9.28
Pasān,IN,1260210,22.85,82.2,61.59,30,0,2.39
Yermekeyevo,RU,467260,54.0761,53.6712,3.42,90,100,14.63
Carballo,ES,3126369,43.213,-8.691,42.98,87,90,6.91
Santa Maria,BR,3450083,-29.6842,-53.8069,66.2,88,40,10.36
Belmonte,BR,3470137,-15.8631,-38.8828,77.0,78,75,6.91
Tomakomai,JP,2127733,42.6369,141.6033,30.2,69,75,14.97
Kralendijk,BQ,3513563,12.15,-68.2667,78.8,78,51,16.11
Cooma,AU,2170577,-36.2333,149.1333,82.4,24,0,10.36
Shelburne,CA,6145890,44.0787,-80.2041,31.95,100,100,8.84
Primo Tapia,MX,3979430,32.22,-116.9172,59.59,54,20,6.91
Castelo do Piauí,BR,3402548,-5.3222,-41.5525,73.56,90,100,3.38
Kapuskasing,CA,5989403,49.4169,-82.4331,27.5,86,92,4.61
Bariloche,AR,7647007,-41.1456,-71.3082,60.8,48,0,11.5
Bonfim,BR,3405215,3.0833,-59.95,76.6,76,99,9.64
Galesong,ID,1644605,-5.3166,119.3661,86.0,79,20,4.61
Batemans Bay,AU,2176639,-35.7167,150.1833,87.76,30,18,10.96
Kaoma,ZM,913323,-14.7833,24.8,64.92,97,100,2.95
São João da Barra,BR,3448903,-21.6403,-41.0511,76.08,87,0,15.43
Hulan Ergi,CN,2036670,47.2042,123.6333,4.1,77,0,5.68
Atasū,KZ,1526041,48.6814,71.6433,-8.57,81,0,9.28
Sur,OM,286245,22.5667,59.5289,69.49,46,0,3.11
Canary Islands,ES,2593110,28.0,-15.5,60.28,72,40,8.05
Peringat,MY,1750582,6.0333,102.2833,80.31,74,20,10.36
Praxédis Guerrero,MX,3974771,31.3667,-106.0167,50.29,18,1,11.5
Itoman,JP,1861280,26.1247,127.6694,66.9,52,75,12.66
Savannah Bight,HN,3601402,16.45,-85.85,77.0,92,82,1.99
Diffa,NE,2445704,13.3154,12.6113,63.0,27,16,8.93
Al Bardīyah,LY,80509,31.7561,25.0865,54.16,72,1,21.34
Khuzdar,PK,7082481,27.7384,66.6434,55.31,29,95,1.9
Port Macquarie,AU,2152659,-31.4333,152.9167,87.62,45,0,1.99
Vila do Maio,CV,3374120,15.1333,-23.2167,69.8,68,40,20.71
Dolores,AR,3435038,-36.3132,-57.6792,58.78,68,1,7.45
Simbahan,PH,1695180,6.3032,120.5836,82.62,77,52,8.46
Mitchell,US,5229794,43.7094,-98.0298,41.0,81,90,4.61
Chapais,CA,5919850,49.7834,-74.8492,26.6,93,90,6.91
Pascagoula,US,4440397,30.3658,-88.5561,38.05,93,1,5.91
Cintalapa,MX,3530617,16.6951,-93.7272,63.07,89,85,5.91
Keminmaa,FI,653257,65.8596,24.8228,-23.8,83,0,4.61
Mount Isa,AU,2065594,-20.7333,139.5,96.8,23,0,13.8
Zhob,PK,1162105,31.3411,69.4481,48.61,40,3,0.83
Formosa,AR,3433899,-26.1775,-58.1781,80.6,78,0,8.05
Tofield,CA,6167254,53.3668,-112.6686,28.99,80,67,21.85
Krasnovishersk,RU,542184,60.4078,57.082,-18.0,85,0,2.04
